{"meta":{"per_page":10,"total":31000,"geolocation":null,"took":6,"page":1},"venues":[{"city":"Arlington","name":"AT&T Stadium","extended_address":"Arlington, TX 76011","url":"http://seatgeek.com/venues/at-t-stadium/tickets/","country":"US","display_location":"Arlington, TX","links":[],"slug":"at-t-stadium","state":"TX","score":0.97142,"postal_code":"76011","location":{"lat":32.7478,"lon":-97.0928},"address":"1 Legends Way","timezone":"America/Chicago","id":4965},{"city":"San Francisco","name":"Candlestick Park","extended_address":"San Francisco, CA 94124","url":"http://seatgeek.com/venues/candlestick-park/tickets/","country":"US","display_location":"San Francisco, CA","links":[],"slug":"candlestick-park","state":"CA","score":0.96169,"postal_code":"94124","location":{"lat":37.711,"lon":-122.386},"address":"490 Jamestown Ave","timezone":"America/Los_Angeles","id":1132},{"city":"East Rutherford","name":"MetLife Stadium","extended_address":"East Rutherford, NJ 07073","url":"http://seatgeek.com/venues/metlife-stadium/tickets/","country":"US","display_location":"East Rutherford, NJ","links":[],"slug":"metlife-stadium","state":"NJ","score":0.95904,"postal_code":"07073","location":{"lat":40.8345,"lon":-74.0984},"address":"1 MetLife Stadium Dr.","timezone":"America/New_York","id":1587},{"city":"Landover","name":"FedEx Field","extended_address":"Landover, MD 20785","url":"http://seatgeek.com/venues/fedex-field/tickets/","country":"US","display_location":"Landover, MD","links":[],"slug":"fedex-field","state":"MD","score":0.95507,"postal_code":"20785","location":{"lat":38.9071,"lon":-76.8658},"address":"1600 Fedex Way","timezone":"America/New_York","id":35},{"city":"Chicago","name":"Soldier Field","extended_address":"Chicago, IL 60605","url":"http://seatgeek.com/venues/soldier-field/tickets/","country":"US","display_location":"Chicago, IL","links":[],"slug":"soldier-field","state":"IL","score":0.95128,"postal_code":"60605","location":{"lat":41.8623,"lon":-87.6159},"address":"1410 S. Museum Campus Drive","timezone":"America/Chicago","id":31},{"city":"Tuscaloosa","name":"Bryant-Denny Stadium","extended_address":"Tuscaloosa, AL 35401","url":"http://seatgeek.com/venues/bryant-denny-stadium/tickets/","country":"US","display_location":"Tuscaloosa, AL","links":[],"slug":"bryant-denny-stadium","state":"AL","score":0.94272,"postal_code":"35401","location":{"lat":33.2083,"lon":-87.5504},"address":"920 Paul W Bryant Drive","timezone":"America/Chicago","id":2755},{"city":"Pasadena","name":"Rose Bowl","extended_address":"Pasadena, CA 91103","url":"http://seatgeek.com/venues/rose-bowl/tickets/","country":"US","display_location":"Pasadena, CA","links":[],"slug":"rose-bowl","state":"CA","score":0.94247,"postal_code":"91103","location":{"lat":34.159,"lon":-118.168},"address":"1001 Rose Bowl Drive","timezone":"America/Los_Angeles","id":45},{"city":"Ann Arbor","name":"Michigan Stadium","extended_address":"Ann Arbor, MI 48104","url":"http://seatgeek.com/venues/michigan-stadium/tickets/","country":"US","display_location":"Ann Arbor, MI","links":[],"slug":"michigan-stadium","state":"MI","score":0.94049,"postal_code":"48104","location":{"lat":42.2657,"lon":-83.7495},"address":"1201 South Main Street","timezone":"America/Detroit","id":2782},{"city":"Glendale","name":"University of Phoenix Stadium","extended_address":"Glendale, AZ 85305","url":"http://seatgeek.com/venues/university-of-phoenix-stadium/tickets/","country":"US","display_location":"Glendale, AZ","links":[],"slug":"university-of-phoenix-stadium","state":"AZ","score":0.93472,"postal_code":"85305","location":{"lat":33.5294,"lon":-112.262},"address":"1 Cardinals Drive","timezone":"America/Phoenix","id":43},{"city":"Green Bay","name":"Lambeau Field","extended_address":"Green Bay, WI 54307","url":"http://seatgeek.com/venues/lambeau-field/tickets/","country":"US","display_location":"Green Bay, WI","links":[],"slug":"lambeau-field","state":"WI","score":0.92762,"postal_code":"54307","location":{"lat":44.5014,"lon":-88.0608},"address":"1265 Lombardi Avenue","timezone":"America/Chicago","id":1125}]}